facility_name,address,ward_name,lng,lat,recept_as,reception,workday
東京アスボクリニック,東京都中央区京橋2-2-1 京橋エドグラン24F,東京都中央区,139.769653,35.677307,,6665-0519,〈月・火・水・金〉午後2時半～4時半
京橋クリニック,東京都中央区京橋2-5-22 キムラヤビル2F,東京都中央区,139.770187,35.676357,,5579-5047,午前9時半～正午、午後2時半～5時
京橋整形外科,東京都中央区京橋2-8-21 喜久家ビル3F,東京都中央区,139.770874,35.67749,,3535-5700,午後3時～4時（平日のみ）
松本内科院,東京都中央区京橋2-11?5 パインセントラルビル5F,東京都中央区,139.771927,35.676216,,4405-7480,午前9時半～12時50分､午後2時半～5時50分
やべ耳鼻咽喉科,東京都中央区銀座1-6-13 106ギンザビル4F,東京都中央区,139.767349,35.674397,,3538-6366,午前9時～午後1時､午後2時～6時
吉川医院,東京都中央区銀座1-9-17,東京都中央区,139.768875,35.673927,,3561-4010,午前10時～正午、午後3時～5時半 （水曜・土曜は午前のみ）
有楽橋クリニック,東京都中央区銀座2-2-17 龍保険ビル4F,東京都中央区,139.76561,35.674606,,3567-8788,午前9時～午後3時
対馬ルリ子女性ライフクリニック銀座,東京都中央区銀座2-6-5 銀座トレシャス7F,東京都中央区,139.767105,35.673546,,3538-1202,午前10時～午後1時、午後2時～5時半
市川医院,東京都中央区銀座2-11-19  銀座市川ビル2F,東京都中央区,139.768753,35.671886,,3541-7202,午後3時半～5時半（平日のみ）（かかりつけ患者優先）
銀座スキンクリニック,東京都中央区銀座3-3-14 銀座グランディアビルII 3F,東京都中央区,139.765427,35.673176,,https://ginzaskin.com/,午前10時～午後6時 医院HPでも受け付けています。 0120-4103-53 
東銀座小川診療所,東京都中央区銀座3-12-7 原町ビル2F,東京都中央区,139.768768,35.670441,,http://ogawa-med.jp/,医院HPより予約案内あり。
木挽町医院,東京都中央区銀座4-11-4,東京都中央区,139.768372,35.670139,,3541-3800,〈平日〉午前9時～午後5時 〈土曜〉午前9時～正午
白倉内科診療所,東京都中央区銀座4-13-18 医療ビル1F,東京都中央区,139.768524,35.6693,,3543-4361,〈平日〉午前10時～午後1時、午後3時～5時 （水曜午後を除く）
銀座さわだ内科クリニック,東京都中央区銀座5-9-15 銀座清月堂ビル4F,東京都中央区,139.765121,35.670052,,3574-7784,午後3時半～5時（平日のみ）
西銀座診療所,東京都中央区銀座6-9-7 近畿建物銀座ビル3F,東京都中央区,139.763382,35.670025,,3573-3094,午前9時半～11時半（平日のみ）
銀座内科・神経内科クリニック,東京都中央区銀座6-12-10 銀座龍岡ビル2F,東京都中央区,139.764618,35.669136,,070-5460-7987,〈月・火・木・金〉午前11時～午後1時、午後3時半～5時半 〈水〉午前11時～午後1時
銀座ウィメンズクリニック,東京都中央区銀座6-12-13 大東銀座ビル4F,東京都中央区,139.764618,35.669136,,5537-7588,午後2時～3時（木・日・祝を除く） （原則、女性の方対象）
銀座在宅醫院　（※）,東京都中央区銀座7-11-6 GINZA ISONOビル5F,東京都中央区,139.763565,35.668327,,6826-1220,午前9時～正午（平日のみ）
小松診療所,東京都中央区銀座7-12-18 第一銀座ビル3F,東京都中央区,139.763824,35.668125,,3543-7611,〈平日〉午前10時～午後5時
銀座しまだ内科クリニック,東京都中央区銀座8-4-26 イワキビル4F,東京都中央区,139.759415,35.668674,,080-7699-8262,〈平日〉午前9時半～午後1時半、午後3時～6時
栗原クリニック,東京都中央区銀座8-12-5 峯田ビル3F,東京都中央区,139.762863,35.667397,,6278-8834,午前9時～10時（診察日のみ）
銀座ハートクリニック,東京都中央区銀座8-16-5 銀座中央ビル1F,東京都中央区,139.763611,35.665848,,070-2680-7698,〈月・火・水・金〉午後3時半～5時半
吉井医院,東京都中央区新富1-5-14,東京都中央区,139.772919,35.67244,,3551-2032,午前11時～正午､午後2時半～3時半（平日のみ）
新富げんかクリニック,東京都中央区新富2-14-5 不二窯業株式会社2F・3F,東京都中央区,139.774963,35.670658,,http://www.shintomi-genka-cl.jp/,午前10時～正午、午後3時～5時（平日のみ） 3551-4346
EASE女性のクリニック,東京都中央区入船1-1-24 5F,東京都中央区,139.777573,35.673565,,https://medical.apokul.jp/web/63/reservations/add/visit,午前9時～午後5時（平日のみ）　3206-1112
厚生診療所,東京都中央区湊3-18-17 マルキ榎本ビル1F,東京都中央区,139.78064,35.669449,,3553-1857,午前10時～正午、午後2時～5時
中央みなとクリニック,東京都中央区明石町8-1 聖路加タワー2F,東京都中央区,139.778534,35.666767,,3547-1395,午前8時半～午後5時半
真山クリニック,東京都中央区明石町11-3 築地アサカワビル2F,東京都中央区,139.775223,35.667019,,https://select-type.com/p/satellite-clinic,ネットでの予約をお願いいたします。
高尾クリニック,東京都中央区明石町11-3 築地アサカワビル2F,東京都中央区,139.775223,35.667019,,https://select-type.com/p/satellite-clinic,ネットでの予約をお願いいたします。
慶友銀座クリニック,東京都中央区築地1-13-11 高橋ビル2F,東京都中央区,139.769562,35.668091,,090-8745-0700,午前10時～正午
八丁堀医院,東京都中央区八丁堀2-20-8 八丁堀綜通ビル9F,東京都中央区,139.777039,35.675728,,3551-8860,午前10時半～午後1時、午後3時～5時
八丁堀3丁目クリニック,東京都中央区八丁堀3-2-5 八丁堀医療ビル2F,東京都中央区,139.773346,35.675076,,070-8410-1867,〈平日〉午前10時～正午、午後3時～6時（木曜を除く） 〈土曜日〉午前10時～正午
三和会中央診療所,東京都中央区八丁堀3-20-5 S-GATE 八丁堀2F,東京都中央区,139.776962,35.675259,,080-2268-9563,午前9時半～12時半､午後2時半～5時
高橋医院,東京都中央区八丁堀3-26-8 高橋ビル1F,東京都中央区,139.778717,35.674992,,3551-5955,〈水・木〉午前9時半～正午、午後3時～6時
東京ダイヤビルクリニック,東京都中央区新川1-28-25 東京ダイヤビルディング3号館1F,東京都中央区,139.783371,35.675465,,3551-7737,午前11時～12時半、午後4時～5時半
八丁堀かず内科外科クリニック,東京都中央区新川2-28-2 メディカルプライム新川3F,東京都中央区,139.782364,35.67329,,070-2251-8819,午前10時半～12時半､午後3時半～5時半
小池医院,東京都中央区日本橋室町1-12-9,東京都中央区,139.774994,35.685909,,3271-0813,午前9時～12時半､午後2時～5時
三井タワークリニック,東京都中央区室町2-1-1 日本橋三井タワー5F,東京都中央区,139.771988,35.67057,,6665-0968,午前9時半～午後4時半
日本橋内科・アレルギー科クリニック,東京都中央区日本橋室町2-4-3 7F,東京都中央区,139.773895,35.687302,,3274-4159,〈月・火・水・金〉午前10時～午後1時、午後3時～5時半 〈木・土〉午前10時～午後1時（第3土曜休診）
大辻内科クリニック,東京都中央区室町4-2-1,東京都中央区,139.771988,35.67057,,3279-3916,午前10時～午後1時、午後3時～6時 （平日のみ）
日本橋・重田クリニック,東京都中央区日本橋室町4-2-13 5F,東京都中央区,139.771774,35.689686,,3241-4045,午前10時～午後2時
五十嵐内分泌クリニック,東京都中央区日本橋本町1-5-11 2F,東京都中央区,139.776001,35.686684,,3270-8855,午前10時～午後1時､午後2時～6時（平日のみ）
友仁クリニック,東京都中央区日本橋本町1-6-5,東京都中央区,139.7771,35.686974,,3510-9561,午前9時半～午後1時､午後2時～5時（平日のみ）
津布久医院　（※）,東京都中央区小網町3-12,東京都中央区,139.771988,35.67057,,3666-1687,〈平日〉午前11時～正午、午後4時～5時 〈土曜〉午前11時～正午
鈴木医院,東京都中央区日本橋大伝馬町3-11,東京都中央区,139.777832,35.689724,,https://internist-151.business.site/,午後2時～4時 3661-5281
大伝馬クリニック,東京都中央区大伝馬町9-7,東京都中央区,139.771988,35.67057,,3661-5367,午前10時～正午
さいとう内科・循環器クリニック,東京都中央区大伝馬町13-8 メディカルプライム日本橋小伝馬町3F,東京都中央区,139.771988,35.67057,,5843-6255,＜平日＞午前10時～午後1時
日本橋神経クリニック,東京都中央区大伝馬町13-8 メデイカムプライム日本橋小伝馬町7F,東京都中央区,139.771988,35.67057,,070-8334-2484,午前9時～午後5時
らいふサイエンス内科クリニック,東京都中央区日本橋堀留町2-6-6 ライフサイエンスビル5F,東京都中央区,139.78093,35.689285,,5652-0725,午前10時～午後1時､午後4時～6時
日本橋木原クリニック,東京都中央区日本橋堀留町2-8-5 1F,東京都中央区,139.781494,35.688633,,5651-1113,午前9時～正午､午後2時～4時
日本橋かわまた内科クリニック,東京都中央区富沢町10-18 1F,東京都中央区,139.771988,35.67057,,080-1380-3552,午前9時～9時半、午後4時～5時
村田内科クリニック　（※）,東京都中央区人形町1-5-8,東京都中央区,139.771988,35.67057,,3666-3880,午前11時～正午
玉寄クリニック　（※）,東京都中央区人形町1-12-11-105,東京都中央区,139.771988,35.67057,,3661-5555,午前9時～12時半、午後3時～6時 （木曜・土曜は午前のみ）
みんなの内科クリニック人形町・水天宮,東京都中央区人形町2-2-3 アライヴ人形町6階,東京都中央区,139.771988,35.67057,,https://minnano-naika.com/,詳しくは医院HPをご覧ください。
中央内科クリニック,東京都中央区人形町2-7-8,東京都中央区,139.771988,35.67057,,3668-0088,〈平日〉午前9時～午後1時、午後2時半～6時 〈土曜〉午前9時～午後1時、午後2時～4時
水天宮前小児科,東京都中央区人形町2-12-11 水天宮M．Y．ビル 3F,東京都中央区,139.771988,35.67057,,3639-0021,〈月・火・木・金〉午前10時～正午 原則、60歳未満の方対象
高柳耳鼻咽喉科,東京都中央区人形町2-21-1 FSビル2F,東京都中央区,139.771988,35.67057,,3667-7764,午前9時半～午後1時
水天宮前いきいきクリニック内科・呼吸器内科,東京都中央区日本橋蛎殻町1-29-6 水天宮前東急ビル2F,東京都中央区,139.783646,35.683262,,3665-1159,〈平日〉午前10時～12時半、午後3時～5時半 〈土曜〉午前10時～12時半
日本橋馬喰町クリニック,東京都中央区日本橋馬喰町1-6-1 JUSKYTOWER日本橋3F,東京都中央区,139.782562,35.693138,,5843-6275,正午～午後1時
日本橋かきがら町クリニック,東京都中央区蛎殻町1-10-4 宮田ビル2F,東京都中央区,139.771988,35.67057,,5651-1361,詳細はクリニックにお問い合わせください。
日本橋むらやまクリニック,東京都中央区東日本橋1-1-4,東京都中央区,139.784927,35.690746,,080-6781-1890,午前10時～正午､午後2時～4時
久松町まつうらクリニック,東京都中央区久松町10-8 フィルパーク日本橋久松町2F,東京都中央区,139.771988,35.67057,,6661-0024,〈平日〉午前9時半～午後5時半
浜町センタービルクリニック,東京都中央区浜町2-31-1 浜町センタービルクリニック7F,東京都中央区,139.763626,35.660629,,3664-6858,午後1時半～4時半
日本橋えがわクリニック,東京都中央区八重洲1-1-3 寿ビル2F,東京都中央区,139.772232,35.684143,,https://nihonbashi-egawacl.com/,午前9時～午後6時（木曜日を除く） 5204-0311
公益財団法人日本検疫衛生協会東京診療所,東京都中央区八重洲1-7-20 八重洲口会館3F,東京都中央区,139.769913,35.681129,,3527-9135,午前9時～正午､午後1時～4時半（土曜は午前のみ）
八重洲ヤヨイクリニック,東京都中央区八重洲1-9-13 6F,東京都中央区,139.769867,35.680294,,5204-0841,午前9時～正午､午後3時～4時
上田診療所,東京都中央区日本橋2-1-10 柳屋ビルB1F,東京都中央区,139.772919,35.68243,,https://www.ueda.com/,午前9時半～12時半､午後2時～5時 3271-2775
八重洲街診療所,東京都中央区日本橋2-2-20 日本橋仲通りビル3F,東京都中央区,139.772232,35.682064,,3271-1828,午前10時～11時､午後3時～5時（水曜は午前のみ）
日本橋れいわ内科クリニック,東京都中央区日本橋3-2-15 ザ・レジデンス東京駅前1F,東京都中央区,139.771576,35.68045,,https://leiwa.mdja.jp/index.php?del2=1&gid=7,ネットでの予約をお願いいたします。
日本橋榎本内科,東京都中央区日本橋3-3-12 E-1ビル3F,東京都中央区,139.771378,35.680119,,3231-1003,〈平日〉午前9時～正午、午後3時～5時
茅場町いとう医院,東京都中央区茅場町1-13-15 新居ビル3F,東京都中央区,139.771988,35.67057,,http://www.kayabacho-itoiin.jp/,午前11時～午後1時（予約ではなく問い合わせのみ） 6667-0198
茅場町パークサイドクリニック,東京都中央区日本橋茅場町2-2-1 東石ビル1F,東京都中央区,139.777557,35.679417,,3666-2212,午前9時～12時45分､午後2時～4時45分
公益財団法人早期胃癌検診 協会附属茅場町クリニック,東京都中央区茅場町2-6-12,東京都中央区,139.771988,35.67057,,3668-6800,午前9時～午後4時 対象年齢は18歳以上（高校生不可）
セントラルクリニック,東京都中央区日本橋茅場町2-7-9 コニー セントラルビル2F,東京都中央区,139.779404,35.679482,,3669-1238,午前8時～11時半､午後1時半～4時半（平日のみ）
日本橋茅場町耳鼻咽喉科,東京都中央区日本橋茅場町2-8-10 碧山ビル3F,東京都中央区,139.779205,35.679153,,3669-2085,午前9時半～午後12時半､午後3時半～6時
中島クリニック,東京都中央区兜町8-8,東京都中央区,139.771988,35.67057,,3666-0880,午前10時～12時半、 午後2時～4時半（土曜は午前のみ）
佃リバーシティ皮膚科,東京都中央区佃1-11-8 ピアウエストスクエア1F,東京都中央区,139.783401,35.669273,,080-7070-1112,〈月･火･木･金〉午前9時～正午
リバーシティすずき整形外科,東京都中央区佃1-11-8 ピアウエストスクエア2F,東京都中央区,139.783401,35.669273,,https://suzuki-seikei.tokyo/,ネットからのみ予約を受け付けています。
橘耳鼻咽喉科クリニック,東京都中央区佃1-11-8 ピアウエストスクエア3F,東京都中央区,139.783401,35.669273,,5548-6011,午前10時～11時半、午後3時～4時半
リバーシティこどもクリニック,東京都中央区佃2-1-6 リバーシティM-スクエア1F,東京都中央区,139.785416,35.669704,,5548-2323,午前9時半～午後5時半
石川島記念病院,東京都中央区佃2-5-2,東京都中央区,139.785049,35.667271,,3532-3281,午後3時～5時（平日のみ）
河内クリニック,東京都中央区月島1-14-13 月島ホームズ102,東京都中央区,139.78186,35.665936,,https://kawachi-cl.org/,午後2時～5時 5548-7060
月島きずなクリニック,東京都中央区月島2-7-9,東京都中央区,139.784225,35.662727,,070-8427-5379,午前10時～午後3時
月島タワークリニック,東京都中央区月島2-10-2 ムーンアイランドタワー202,東京都中央区,139.78418,35.663509,,6219-7152,午前11時～午後4時
善利医院,東京都中央区月島3-13-4,東京都中央区,139.78067,35.661858,,3531-1566,午前10時～正午
みなとホームケアクリニック（※）,東京都中央区月島3-24-5 月島NRビル401,東京都中央区,139.778839,35.66338,,―,医療機関から個別に連絡をします。
小坂こども元気クリニック・病児保育室,東京都中央区月島3-30-3 ベルウッドビル2・3・4F,東京都中央区,139.779297,35.660873,,https://kosaka.clinic/,午前9時～午後6時（平日のみ） 5547-1191
鈴木クリニック　（※）,東京都中央区月島4-5-12 ベルハイツ201,東京都中央区,139.783478,35.660416,,3531-1685,午前11時～正午
月島クリニック,東京都中央区月島4-16-7-106,東京都中央区,139.78067,35.660187,,3531-0082,〈平日〉午前9時～12時半､午後2時半～6時半 〈土曜〉午前9時～11時半
杉野内科クリニック,東京都中央区勝どき2-9-12 HBビル勝どき3F,東京都中央区,139.778412,35.659393,,5547-0961,〈月・火・水・金〉午前10時～正午、午後2時～4時
勝どき駅前内科皮ふ科クリニック,東京都中央区勝どき3-5-5 AIP勝どき駅前ビル3F,東京都中央区,139.776031,35.65863,,5859-0948,午後2時～5時 5548-7060 （土曜午後・日・祝を除く）
勝どきみなみクリニック,東京都中央区勝どき4-8-5 アクティ東仲通り1F,東京都中央区,139.775635,35.656731,,3533-0715,〈月･火･水･金〉午前10時～12時半､午後3時半～6時 090-1250-3275
ザ東京タワーズクリニック,東京都中央区勝どき6-3-2-102 サﾞ東京タワーズミッドタワー1F,東京都中央区,139.773666,35.654881,,https://thetowers.jp,午後2時～5時（平日のみ） 070-2168-9248
晴海クリニック　（※）,東京都中央区晴海1-6-5-203,東京都中央区,139.783752,35.658813,,3531-0937,正午～午後1時
慈恵医大晴海トリトンクリニック,東京都中央区晴海1-8-8 オフィスタワーW3F,東京都中央区,139.78183,35.655556,,5548-3288,〈平日〉午後2時～午後4時 来院での予約は受け付けておりません。
晴海トリトン夢未来クリニック,東京都中央区晴海1?8?16 晴海トリトンスクエア 3F,東京都中央区,139.786163,35.659523,,http://219.117.202.90/yk/,午前8時半～12時半、午後2時半～6時半 （土日祝の午後は午後1時半～3時半） 3536-1361
たけぶちファミリークリニック,東京都中央区晴海2-5-24 晴海センタービル1F,東京都中央区,139.7827,35.65546,,080-3544-3534,午前10時半～午後1時、午後3時半～5時半
晴海3丁目クリニック,東京都中央区晴海3-10-1 Daiwa晴海ビル 1F A-3,東京都中央区,139.779266,35.653954,,https://www.harumi3-cl.jp/,〈月･火･木･金〉午前9時半～午後7時半 〈土日〉午前9時～午後5時 090-9835-8633
海上ビル診療所,東京都千代田区丸の内1-2-1 東京海上日動ビル新館3階,東京都千代田区,139.763107,35.682842,,03-3212-7690,午前9時～午後5時30分（月曜日～金曜日） 午前9時～12時（第2・第4土曜日）
MARU By Tokyo Business Clinic,東京都千代田区丸の内1-8-2 鉄鋼ビルディング1階,東京都千代田区,139.769562,35.682667,,03-6269-9475,午前9時～午後8時30分
東京ビジネスクリニック グランスタ丸の内,東京都千代田区丸の内1-9-1 JR東日本東京駅構内地下1階,東京都千代田区,139.767242,35.681252,,03-6259-1605,午前9時～午後8時30分
東京ビジネスクリニック 八重洲北口,東京都千代田区丸の内1-8-2 鉄鋼ビルディング地下1階,東京都千代田区,139.769562,35.682667,,03-6268-0079,午前9時～午後8時30分
聖路加メディローカス,東京都千代田区大手町1丁目9-7 大手町フィナンシャルシティサウスタワー2階,東京都千代田区,139.765411,35.688286,,03-3527-9557,午前9時～12時（月曜日～金曜日）
帝国クリニック,東京都千代田区内幸町1-1-1 帝国ホテル本館4階,東京都千代田区,139.758057,35.671375,,03-3503-8681,午前9時～午後1時/午後2時30分～6時（月曜日～金曜日） 緊急事態宣言中は午後4時まで
中田クリニック,東京都千代田区内幸町2-2-1 日本プレスセンタービルB1階,東京都千代田区,139.754822,35.670513,,03-5511-7770,午前9時～午後1時/午後3時～7時（月曜日・火曜日・木曜日・金曜日） 午後3時～7時（水曜日） 午前9時～午後1時（土曜日）
日比谷国際クリニック,東京都千代田区内幸町2-2-3 日比谷国際ビル地下1階,東京都千代田区,139.754822,35.670513,,03-3503-3440,午前9時～午後1時/午後2時～5時（月曜日～金曜日）
有楽町 睡眠・呼吸器内科クリニック,東京都千代田区有楽町1-7-1 有楽町電気ビル 北館5階,東京都千代田区,139.761444,35.674358,,03-5221-8088,午前10時～午後1時/午後3時～6時30分（月曜日～金曜日） 午後3時～6時30分（第2・4水曜日）
アイ・ローズクリニック,東京都千代田区霞が関1-4-1 日土地ビル1階,東京都千代田区,139.750793,35.670742,,03-3503-3900,午前9時～12時（月曜日～金曜日）
薬師堂クリニック,東京都千代田区永田町2-14-2 山王グランドビル2階,東京都千代田区,139.738052,35.676807,,03-3500-5090,午前9時～午後1時/午後2時30分～6時（月曜日～木曜日） 午後2時30分～7時（金曜日） 午前9時～午後1時（土曜日）
大森胃腸科,東京都千代田区隼町2-15,東京都千代田区,139.741913,35.682884,,03-3234-6226,午前9時～12時45分/午後2時～5時（月曜日～水曜日・金曜日） 午前9時～12時45分（木曜日・土曜日）
半蔵門病院,東京都千代田区麹町1-10,東京都千代田区,139.742584,35.68515,,03-3239-3355,午前9時～午後4時30分（月曜日～土曜日）
麹町明光耳鼻咽喉科,東京都千代田区麹町1-5-4-101,東京都千代田区,139.742142,35.683575,,03-3288-7333,午前9時30分～午後6時（月曜日・火曜日・木曜日・金曜日） 午前9時30分～12時30分（土曜日）
グローバルヘルスケアクリニック,東京都千代田区麹町3-12-2 麹町MSビル1階,東京都千代田区,139.738556,35.685204,,03-3222-8832,午前10時～12時30分/午後2時30分～6時30分（月曜日～金曜日） 午前10時～12時30分（土曜日）第3水曜日休診
浅井医院,東京都千代田区麹町3-7-24-101,東京都千代田区,139.739487,35.683392,,03-3261-0453,午前9時～12時（月曜日・火曜日・木曜日・金曜日）
麹町クリニック,東京都千代田区麹町3-4-7 啓ビル5階,東京都千代田区,139.737656,35.684956,,03-3238-7654,午前10時～午後1時（月曜日～金曜日）
山岡クリニック,東京都千代田区麹町4-3 麹町富士ビル2階,東京都千代田区,139.737595,35.683212,,03-3264-5160,午前9時30分～午後1時 午後3時～6時（月曜日～金曜日） 午前9時30分～午後1時（土曜日）
紀尾井町内科,東京都千代田区紀尾井町3-1 KKDビル1階,東京都千代田区,139.737793,35.681519,,03-6265-6500,午前9時30分～12時30分/午後2時～5時30分（月曜日～金曜日）
東都クリニック,東京都千代田区紀尾井町4-1 ホテルニューオータニガーデンタワー2階,東京都千代田区,139.734283,35.680435,,03-3239-0301,午後2時30分～3時30分（月曜日～金曜日） tohto-vaccine-yoyaku@kenkoigaku.or.jp
ふたばクリニック,東京都千代田区四番町4-22 四番町ビル101,東京都千代田区,139.737656,35.68959,,03-6268-9620,午前11時～12時（月曜日・火曜日・水曜日・金曜日）
市ヶ谷診療所,東京都千代田区五番町2 横山ビル1階,東京都千代田区,139.732758,35.689255,,03-3234-5021,午後2時30分～5時（月曜日～金曜日）
小川耳鼻咽喉科,東京都千代田区六番町7-36,東京都千代田区,139.733841,35.687035,,03-3230-3319,午前9時30分～12時30分/午後3時～6時（月曜日・火曜日・木曜日・金曜日） 午前9時30分～12時30分（土曜日）
常喜医院,東京都千代田区六番町7-1 番町グロリアビル1階,東京都千代田区,139.733841,35.687035,,03-5226-7557,午後1時30分～5時30分（月曜日～木曜日）
滝医院,東京都千代田区九段南4-3-1,東京都千代田区,139.739777,35.69154,,080-4200-4076,午前11時～12時30分/午後4時～6時（月曜日～水曜日・金曜日）
日本医科大学呼吸ケアクリニック,東京都千代田区九段南4-7-15 JPR市ヶ谷ビル8階,東京都千代田区,139.738846,35.691269,,03-5276-2325,午前9時～午後5時（月曜日～金曜日）
九段下駅前ココクリニック,東京都千代田区九段北1-2-1 九段中央ビル3階,東京都千代田区,139.752045,35.695976,,https://ssl.fdoc.jp/reserve/subjectlist/index/cid/s7757253,自動音声で24時間対応可 050-5306-9541
一口坂クリニック,東京都千代田区九段北4-1-5 市ヶ谷法曹ビルB1階,東京都千代田区,139.739746,35.692764,,03-3221-1919,午後1時～6時（月曜日～金曜日）
クリニックフォア飯田橋,東京都千代田区富士見2-7-1 プラーノ飯田橋1階,東京都千代田区,139.744965,35.700809,,ネット予約のみ,クリニックフォア飯田橋（外部サイトへリンク）
小池内科,東京都千代田区富士見2-13-16,東京都千代田区,139.743988,35.698071,,03-3265-0203,午前9時～午後6時（月曜日～金曜日） 午前9時～12時（土曜日）
洋洋クリニック,東京都千代田区富士見2-10-2 飯田橋グランブルームサクラテラス3階,東京都千代田区,139.743576,35.698811,,03-6272-3318,午前10時～午後4時（月曜日～金曜日）
やじまクリニック,東京都千代田区飯田橋1-8-9-201,東京都千代田区,139.748245,35.699432,,03-3261-7853,午前9時30分～12時30分/午後2時30分～6時（月曜日・火曜日・木曜日・金曜日） 午前9時30分～12時30分（土曜日）
ケイアイ飯田橋クリニック,東京都千代田区飯田橋3-10-10 ガーデンエアタワー2階,東京都千代田区,139.749847,35.700691,,03-3239-2777,午前9時～午後1時/午後2時30分～6時（月曜日～金曜日）
飯田橋小池クリニック,東京都千代田区飯田橋4-4-7,東京都千代田区,139.746643,35.700344,,03-3221-8858,12時～午後1時（火曜日・水曜日・金曜日）
飯田橋クリニック,東京都千代田区飯田橋4-6-9 STビル2階,東京都千代田区,139.746902,35.700813,,03-3222-6461,12時～午後5時（月曜日～金曜日）
パレスクリニック,東京都千代田区一ツ橋1-1-1 パレスサイドビル1階,東京都千代田区,139.757507,35.690922,,03-3213-2855,午前9時～12時/午後2時～5時（月曜日・火曜日・木曜日・金曜日）
加賀医院,東京都千代田区神田神保町1-35,東京都千代田区,139.759354,35.694736,,03-3291-9951,午前9時～午後1時/午後4時～6時（月曜日～金曜日）
神保町消化器科・内科,東京都千代田区神田神保町2-9-1 神保町メディカルモール4階,東京都千代田区,139.755905,35.695366,,03-3515-3171,午前9時～午後7時（月曜日～金曜日） 午前9時～午後1時（土曜日）
丸山医院,東京都千代田区神田三崎町2-20-1 第二石川ビル,東京都千代田区,139.752945,35.701962,,03-3261-9679,午前10時～12時/午後4時～6時（月曜日～水曜日・金曜日） 午前10時～12時（土曜日）
水道橋メディカルクリニック,東京都千代田区西神田1-4-11-301,東京都千代田区,139.757126,35.69976,,03-3518-6127,午前9時～11時（月曜日～金曜日）
杏雲堂病院,東京都千代田区神田駿河台1-8,東京都千代田区,139.763245,35.698021,,03-3292-2058,午後1時30分～4時30分
駿河台診療所,東京都千代田区神田駿河台2-1-45 ニュー駿河台ビル5階,東京都千代田区,139.762421,35.699497,,03-3219-1121,午後2時～5時（月曜日～金曜日）
井上眼科病院,東京都千代田区神田駿河台4-3,東京都千代田区,139.765167,35.698803,,03-3295-0911,午前8時30分～午後4時30分（月曜日～土曜日）
遠藤クリニック,東京都千代田区神田錦町1-8,東京都千代田区,139.764725,35.693359,,03-3295-1013,午前10時以降（月曜日・水曜日・金曜日・土曜日） 午後3時～5時（火曜日）第1土曜日は休診
千代田診療所,東京都千代田区神田錦町1-9,東京都千代田区,139.764404,35.691795,,03-3291-1071,午後3時～5時（月曜日～金曜日）
竹橋クリニック,東京都千代田区神田錦町3-17 北の丸ビル1階,東京都千代田区,139.760361,35.691833,,03-3295-5525,午前9時30分～12時/午後1時～4時（火曜日・木曜日・金曜日） 午後3時30分～7時（水曜日）
山中内科・リウマチ科クリニック,東京都千代田区神田小川町三丁目6番地9 神田第2アメレックスビル8階,東京都千代田区,139.762177,35.695404,,03-5280-1371,午前9時～12時/午後2時～5時15分（月曜日～木曜日） 午前9時～12時（土曜日）
神田クリニック,東京都千代田区内神田2-4-1,東京都千代田区,139.768356,35.690029,,03-3252-0621,午前9時30分～12時30分/午後2時～5時（月曜日～金曜日） 午前9時30分～12時30分（第1・第3土曜日）
神田診療所,東京都千代田区内神田2-8-14,東京都千代田区,139.768387,35.690735,,03-3256-0086,午後3時～5時（月曜日～金曜日）
あいクリニック神田,東京都千代田区内神田3-14-8 ニシザワビル5階,東京都千代田区,139.769943,35.691738,,070-7590-4366,午前9時～11時（月曜日～金曜日）
奥田医院,東京都千代田区神田多町2-9,東京都千代田区,139.768631,35.693966,,03-3254-0701,午前9時～12時30分/午後2時～5時（月曜日～金曜日）
大塩医院,東京都千代田区神田淡路町2-6-2,東京都千代田区,139.768066,35.696877,,03-3251-6878,午前9時～12時/午後2時～5時（月曜日・火曜日・木曜日・金曜日） 午前9時～12時（水曜日・第1・第3・第5土曜日）
林医院,東京都千代田区外神田3-7-1,東京都千代田区,139.770309,35.702263,,03-3253-7436,午後3時30分～5時（月曜日～金曜日）
クリニカ神田,東京都千代田区鍛冶町1-8-1 SRビル2階,東京都千代田区,139.772797,35.690968,,050-3578-4159,午後3時30分～5時30分（月曜日～水曜日・金曜日）
二宮内科クリニック,東京都千代田区鍛冶町1-9-1 第2大久保ビル3階,東京都千代田区,139.772934,35.690662,,03-3254-5007,午前9時30分～午後4時（月曜日・水曜日・金曜日） 午前9時30分～12時30分（火曜日・木曜日）
神田医院,東京都千代田区鍛冶町1?8?6 神田KSビル二階,東京都千代田区,139.771545,35.690197,,03-3252-8896,午前10時30分?12時30分/午後2時30分～4時30分（月曜日～金曜日）木曜日午後休診
神田駅東口クリニック,東京都千代田区鍛冶町2-8-6 メディカルプライム神田2階,東京都千代田区,139.772186,35.692413,,03-6271-7916,午前10時～12時/午後3時～6時（月曜日～水曜日・金曜日） 午前10時～12時（木曜日・土曜日）
瀬木診療所,東京都千代田区岩本町1-7-1,東京都千代田区,139.778091,35.692192,,03-3866-7313,午前11時～12時/午後2時～3時（月曜日・火曜日・木曜日・金曜日）
秋元医院,東京都千代田区神田東松下町19,東京都千代田区,139.774185,35.694294,,03-5297-5888,午前9時～12時45分/午後3時～6時45分（月曜日～水曜日・金曜日） 午前9時～12時45分（土曜日）
秋葉原あつたアレルギー呼吸器内科クリニック,東京都千代田区神田岩本町1-5 清水ビル6階,東京都千代田区,139.774963,35.69606,,https://www.yoyakuru.net/rs/atsuta-clinic/web/,午前10時～午後1時/午後3時～6時（月曜日・火曜日・木曜日・金曜日） 午前10時～午後1時（水曜日・土曜日）
鈴森内科クリニック,東京都千代田区神田岩本町1 岩本町ビル4階,東京都千代田区,139.774963,35.69606,,03-6260-8865,午後3時30分～4時30分（月曜日～金曜日）
秋葉原DEM内科クリニック,東京都千代田区神田佐久間町3-28 星野ビル2階,東京都千代田区,139.778412,35.698578,,03-5846-9876,午前10時～午後4時（月曜日・火曜日・水曜日・金曜日） 午前10時～12時30分（木曜日）
明和病院,東京都千代田区神田須田町1-18,東京都千代田区,139.771088,35.695591,,03-3251-4111,午前9時～午後5時（月曜日～金曜日） 午前9時～12時（土曜日）
まがり医院,東京都新宿区荒木町6―34,東京都新宿区,139.722961,35.689491,かかりつけ,（5362）5531,
あけぼの診療所,東京都新宿区片町2―3 菱和ビル4階,東京都新宿区,139.725037,35.692116,かかりつけ,,
四谷内科,東京都新宿区左門町20 四谷メディカルビル2階,東京都新宿区,139.720596,35.68531,一般,,
須田医院,東京都新宿区須賀町1,東京都新宿区,139.72226,35.687016,かかりつけ,,
やおいた整形外科,東京都新宿区住吉町2―14 四谷曙橋ビル4階,東京都新宿区,139.721176,35.692066,かかりつけ,,
林外科病院,東京都新宿区大京町27―1 ハヤシビル,東京都新宿区,139.716171,35.681942,一般,,
四谷・血管クリニック,東京都新宿区四谷1―8―14 四谷一丁目ビル2階,東京都新宿区,139.728806,35.685905,一般,,
佐藤内科小児科医院,東京都新宿区四谷1―15 1階,東京都新宿区,139.728806,35.685905,一般,,
ケイアイクリニック,東京都新宿区四谷1―20―23 ケイアイメディカルビル,東京都新宿区,139.728806,35.685905,一般,,
高村医院,東京都新宿区四谷3―10,東京都新宿区,139.720749,35.688019,かかりつけ,(3351)3610,
田中内科医院,東京都新宿区四谷三栄町9,東京都新宿区,139.725662,35.687771,かかりつけ,080（2130）0548,
四谷・長島クリニック,東京都新宿区若葉1ー4ー7,東京都新宿区,139.723953,35.686718,一般,(5368)1686,
歌舞伎町ひかりクリニック,東京都新宿区歌舞伎町2―46―8 新宿日章ビル9階,東京都新宿区,139.703827,35.696556,一般,,
ヒロオカクリニック,東京都新宿区新宿2―5―12 ＦＯＲＥＣＡＳＴ新宿ＡＶＥＮＵＥ3階,東京都新宿区,139.708389,35.690063,一般,,
新宿サンクリニック,東京都新宿区新宿2―11―2 カーサヴェルデ301号,東京都新宿区,139.708389,35.690063,かかりつけ,,
ミラザ新宿つるかめクリニック,東京都新宿区新宿3―36―10 ミラザ新宿7階,東京都新宿区,139.703568,35.691227,一般,,
新宿金沢内科クリニック,東京都新宿区新宿3―37ー11 安与ビル3階,東京都新宿区,139.703568,35.691227,かかりつけ,,
ナビタスクリニック新宿,東京都新宿区新宿4－1－6　ニュウマン7階,東京都新宿区,139.70256,35.688889,一般,（5361）8383,
Kclinic,東京都新宿区新宿5―6―2 神谷ビル402,東京都新宿区,139.70787,35.693169,一般,（3226）4024,
新宿イーストサイドたけうち内科,東京都新宿区新宿6―27―30 新宿イーストサイドスクエア地下1階,東京都新宿区,139.709793,35.695366,一般,,
フジモト新宿クリニック,東京都新宿区富久町13―1 ローレルコート新宿タワー2階,東京都新宿区,139.714767,35.692028,かかりつけ,,
伊藤医院,東京都新宿区富久町28―5,東京都新宿区,139.714828,35.694099,一般,（3341）6035,
新宿ホームクリニック,東京都新宿区内藤町1 ガーデンクロス新宿御苑1階,東京都新宿区,139.715195,35.68504,一般,,
抜弁天クリニック,東京都新宿区余丁町8―7 抜弁天ビル1階,東京都新宿区,139.713257,35.697594,かかりつけ,,
えとう内科クリニック,東京都新宿区余丁町11―19 ,東京都新宿区,139.715439,35.697189,かかりつけ,,
執行クリニック,東京都新宿区赤城下町62 アネックス62　1階,東京都新宿区,139.7341,35.70583,一般,,
本多内科クリニック,東京都新宿区市谷加賀町2―3―15,東京都新宿区,139.728607,35.696823,一般,（6265）0677,
市谷アレルギー・リウマチクリニック,東京都新宿区市谷田町1―1 ＡＴビル10階,東京都新宿区,139.736313,35.692921,一般,,
日本家族計画協会市谷クリニック,東京都新宿区市谷田町1―10 保健会館新館2階,東京都新宿区,139.736313,35.692921,一般,,
おかべふじこ内科・循環器クリニック,東京都新宿区市谷田町1―19 ＥＳＣ第19ビル3階,東京都新宿区,139.736313,35.692921,一般,,
市ヶ谷ひもろぎクリニック,東京都新宿区市谷田町2―31―3 市ヶ谷ＡＳＵＫＡＲＡビル,東京都新宿区,139.737473,35.694702,一般,,
曙橋よつばファミリークリニック,東京都新宿区市谷仲之町3－45 市ヶ谷仲之町ヒルズクレスト101,東京都新宿区,139.721756,35.69503,一般,,
柳町病院,東京都新宿区市谷柳町25,東京都新宿区,139.72673,35.699116,一般,（3268）3521,
倉澤クリニック,東京都新宿区神楽坂3―5 神楽坂センタービル6階,東京都新宿区,139.740524,35.701454,一般,,
菊池医院,東京都新宿区神楽坂6―25 塩谷ビル1階,東京都新宿区,139.737,35.703037,一般,,
神楽坂内科・脳神経内科クリニック,東京都新宿区神楽坂6―42,東京都新宿区,139.737,35.703037,一般,（6280）7582,
やまだ内科クリニック,東京都新宿区北町23,東京都新宿区,139.734909,35.699978,一般,（5206）8853,
あいクリニック,東京都新宿区下宮比町3―2 飯田橋スクエアビル2階,東京都新宿区,139.742966,35.703129,一般,,
黒坂医院,東京都新宿区白銀町25,東京都新宿区,139.738174,35.703133,一般,（3260）3590,
新小川町クリニック,東京都新宿区新小川町6―40 入交ビル3階,東京都新宿区,139.742157,35.707233,一般,,
あべメディカルクリニック,東京都新宿区水道町4―29 宝ビル1階,東京都新宿区,139.73645,35.708263,一般,,
神楽坂泌尿器科クリニック,東京都新宿区中里町13,東京都新宿区,139.732315,35.705879,一般,(3267）6638,
牛込台さこむら内科,東京都新宿区中町23,東京都新宿区,139.735504,35.699284,かかりつけ,,
牛込パーククリニック,東京都新宿区原町1―18 1階,東京都新宿区,139.725525,35.700394,一般,,
夏目坂皮フ科クリニック,東京都新宿区原町3―37 アイランドビル1階,東京都新宿区,139.722748,35.699772,一般,,
内科すずきクリニック,東京都新宿区山吹町295 杉山ビル1階,東京都新宿区,139.731766,35.70739,一般,,
春日メディカルクリニック,東京都新宿区山吹町334 セブンファイブビル1階・2階,東京都新宿区,139.729568,35.707603,一般,,
なかやまクリニック,東京都新宿区山吹町335 安井ビル2階,東京都新宿区,139.72905,35.707592,一般,,
江戸川橋鈴木クリニック,東京都新宿区山吹町348 DSDビル3階・4階,東京都新宿区,139.730591,35.708519,一般,,
神楽坂岡田診療所,東京都新宿区矢来町28 1階,東京都新宿区,139.730453,35.704086,かかりつけ,,
内野醫院,東京都新宿区横寺町8,東京都新宿区,139.735153,35.702415,かかりつけ,（3235）3270,
小田クリニック,東京都新宿区大久保1―11―3 大東ビル2階,東京都新宿区,139.704956,35.699642,一般,,
堀内クリニック,東京都新宿区大久保2―1―1 サントーク大久保2階,東京都新宿区,139.705704,35.702675,一般,,
西大久保クリニック,東京都新宿区大久保2―3―5 1階,東京都新宿区,139.705704,35.702675,かかりつけ,,
おおくぼ戸山診療所,東京都新宿区大久保2―8―2,東京都新宿区,139.705704,35.702675,かかりつけ,,
新宿ヒロクリニック,東京都新宿区大久保2―11―15 大林ビル1階・2階,東京都新宿区,139.705704,35.702675,かかりつけ,,
コンフォガーデンクリニック,東京都新宿区河田町3―2,東京都新宿区,139.72084,35.695869,一般,(3357)2001,
若松河田クリニック,東京都新宿区河田町10―7 グリーンヒルズ河田町201,東京都新宿区,139.717941,35.698177,一般,,
助川クリニック,東京都新宿区高田馬場1―5―10,東京都新宿区,139.706421,35.710979,一般,（3209）3333,
植松医院,東京都新宿区高田馬場1―32―14 ＵＫビル2階,東京都新宿区,139.706421,35.710979,かかりつけ,,
高戸橋クリニック,東京都新宿区高田馬場2―5―24 メゾンドール高田馬場1階,東京都新宿区,139.707504,35.712982,一般,,
須田クリニック,東京都新宿区高田馬場2―8―14,東京都新宿区,139.707504,35.712982,かかりつけ,,
耳鼻咽喉科ヒロ医院,東京都新宿区高田馬場3―2―5　ANビル7階 ,東京都新宿区,139.697205,35.713474,一般,,
牛込外科胃腸科,東京都新宿区高田馬場4―10―12,東京都新宿区,139.699188,35.710766,一般,（3361）0301,
牛山医院,東京都新宿区高田馬場4―11―5,東京都新宿区,139.699188,35.710766,かかりつけ,,
須田外科クリニック,東京都新宿区高田馬場4―22―7 （3362）5753,東京都新宿区,139.699188,35.710766,一般,（3362）5753,
鈴木医院,東京都新宿区戸山3―10―6 ,東京都新宿区,139.712524,35.706287,かかりつけ,,
本庄医院,東京都新宿区西早稲田1―21―2―201 （3203）3959,東京都新宿区,139.719025,35.70982,一般,（3203）3959,
磯貝クリニック,東京都新宿区西早稲田2―4―8 （3232）1776,東京都新宿区,139.713043,35.708897,一般,（3232）1776,
西早稲田クリニック,東京都新宿区西早稲田2―21―16 圓生楼高田馬場ビル2階,東京都新宿区,139.713043,35.708897,一般,,
西北診療所,東京都新宿区西早稲田3―12―4 サンハイツ早稲田ビル1階,東京都新宿区,139.713791,35.712086,一般,,
早稲田診療所,東京都新宿区西早稲田3―17―23 サンファミール西早稲田2階,東京都新宿区,139.713791,35.712086,かかりつけ,,
早稲田クリニック,東京都新宿区馬場下町10 早稲田レストハイツ2階,東京都新宿区,139.719177,35.706055,かかりつけ,,
宮田胃腸内科皮膚科クリニック,東京都新宿区百人町1―11―2 2階,東京都新宿区,139.699234,35.699921,一般,,
長峰整形外科,東京都新宿区百人町1―11―3 NSロイヤル大久保1階,東京都新宿区,139.699234,35.699921,かかりつけ,,
春山記念病院,東京都新宿区百人町1―24―5,東京都新宿区,139.699234,35.699921,一般,（5337）7335,
Tokyo Kirei Clinic,東京都新宿区百人町2-15-9　坂田ハイツ101,東京都新宿区,139.698685,35.702396,一般,（6908）5329,
新大久保クリニック,東京都新宿区百人町2―20ー21 1階,東京都新宿区,139.69873,35.702991,かかりつけ,,
西戸山クリニック,東京都新宿区百人町3―7―8 原ビル2階,東京都新宿区,139.697739,35.706009,かかりつけ,,
百人町診療所,東京都新宿区百人町3―14―7,東京都新宿区,139.697739,35.706009,かかりつけ,,
寺尾クリニカ,東京都新宿区百人町3―28―5 グランドヒルズA,東京都新宿区,139.697739,35.706009,一般,,
若松河田耳鼻咽喉科クリニック,東京都新宿区若松町31―4 エスタンシア2階,東京都新宿区,139.71991,35.700012,一般,,
耳鼻いんこう科,東京都新宿区山西クリニック 早稲田鶴巻町518,東京都新宿区,139.729797,35.707939,一般,,
岡崎医院,東京都新宿区早稲田鶴巻町519 1階・2階,東京都新宿区,139.723557,35.707844,かかりつけ,,
村橋医院,東京都新宿区早稲田町73,東京都新宿区,139.721664,35.706661,かかりつけ,,
上落合真クリニック,東京都新宿区上落合1―5ー4 幸楽亭ビル1階・2階,東京都新宿区,139.692429,35.713486,かかりつけ,,
木島内科クリニック,東京都新宿区上落合1―21―14,東京都新宿区,139.692429,35.713486,かかりつけ,（3364）6321,
落合ファミリークリニック,東京都新宿区上落合2―11―16,東京都新宿区,139.68811,35.713505,一般,,
伊藤メディカルクリニック,東京都新宿区上落合2―25―3 伊藤ビル1階,東京都新宿区,139.68811,35.713505,一般,,
落合駅前クリニック,東京都新宿区上落合3―10―3 加藤ビル1階,東京都新宿区,139.683716,35.712521,一般,,
宗像クリニック,東京都新宿区下落合1―6―1 宮村ビル3階,東京都新宿区,139.699585,35.71574,一般,,
目白ブライトクリニック,東京都新宿区下落合3―21―3 Mコート目白1階,東京都新宿区,139.701736,35.721176,一般,,
ほそかわ内科クリニック,東京都新宿区中井2―20―7,東京都新宿区,139.683823,35.716427,かかりつけ,（3952）4181,
オリエンタル診療所,東京都新宿区西落合2―20―1 哲学堂公園ハイツ1―1,東京都新宿区,139.676392,35.720913,かかりつけ,,
そはら医院,東京都新宿区西落合3ー1ー22 1階・2階,東京都新宿区,139.68306,35.722851,かかりつけ,,
柏木医科クリニック,東京都新宿区北新宿1―13―19 弘林ビル3階,東京都新宿区,139.693878,35.699486,一般,,
くれクリニック,東京都新宿区北新宿2―21―1 新宿フロントタワー3階,東京都新宿区,139.689636,35.698586,一般,,
竹田クリニック,東京都新宿区北新宿3―1―21 みどりビル3階,東京都新宿区,139.690979,35.703854,一般,,
桑原医院,東京都新宿区北新宿3―12―26,東京都新宿区,139.690979,35.703854,かかりつけ,,
髙橋医院,東京都新宿区北新宿3―21―8,東京都新宿区,139.690979,35.703854,一般,（3371）8064,
松本皮膚科,東京都新宿区北新宿4―33―5,東京都新宿区,139.691299,35.706768,かかりつけ,（3360）3306,
西新宿メンタルクリニック,東京都新宿区西新宿1―5―12 ニュ―セントラルビル3階,東京都新宿区,139.697495,35.690384,一般,,
三越診療所,東京都新宿区西新宿1―24―1 エステック情報ビル5階,東京都新宿区,139.697495,35.690384,一般,,
新宿三井ビルクリニック,東京都新宿区西新宿2―1―1 新宿三井ビル4階,東京都新宿区,139.691772,35.689449,かかりつけ,,
プラザ30階クリニック,東京都新宿区西新宿2―2―1 京王プラザホテル本館30階,東京都新宿区,139.691772,35.689449,一般,,
ＫＤＤＩビルクリニック,東京都新宿区西新宿2―3―2 ＫＤＤＩ新宿ビル1階,東京都新宿区,139.691772,35.689449,かかりつけ,,
新宿ＮＳビルクリニック,東京都新宿区西新宿2―4―1 新宿ＮＳビル4階,東京都新宿区,139.691772,35.689449,一般,,
かおり内科クリニック,東京都新宿区西新宿3―7―1 新宿パークタワー地下1階,東京都新宿区,139.689178,35.684528,一般,,
オペラシティクリニック,東京都新宿区西新宿3―20―2 東京オペラシティ,東京都新宿区,139.689178,35.684528,一般,,
駒ケ嶺医院,東京都新宿区西新宿4―4―6,東京都新宿区,139.687622,35.687538,一般,（3378）3875,
根本医院,東京都新宿区西新宿4―10―15,東京都新宿区,139.687622,35.687538,一般,（3377）6513,
新都心十二社クリニック,東京都新宿区西新宿5―5―1―203 ザ・パークハウス西新宿タワー60,東京都新宿区,139.685562,35.692886,かかりつけ,,
新宿睡眠・呼吸器内科クリニック,東京都新宿区西新宿6―5―1 新宿アイランドタワー12階,東京都新宿区,139.690964,35.693424,一般,,
先進会眼科,東京都新宿区東京 西新宿6―5―1,東京都新宿区,139.739304,35.706615,一般,,
新宿グリーンタワー内科クリニック,東京都新宿区西新宿6―14―1 新宿グリーンタワービル2階,東京都新宿区,139.690964,35.693424,一般,,
西新宿小林クリニック,東京都新宿区西新宿6―20―12 第2山口ビル4階,東京都新宿区,139.690964,35.693424,一般,,
いしい内科・外科クリニック,東京都新宿区西新宿7―1―10 守矢ビル5階,東京都新宿区,139.697235,35.69558,かかりつけ,,